City_ID,City,Lat,Lng,Max Temp,Humidity,Cloudiness,Wind Speed,Country,Date
0,katobu,-4.9408,122.5276,76.12,93,89,0.63,ID,1615006933
1,mataura,-46.1927,168.8643,64.0,52,84,7.0,NZ,1615006771
2,hukuntsi,-24.0,21.75,73.33,41,67,5.17,BW,1615006933
3,punta arenas,-53.15,-70.9167,53.6,76,90,4.61,CL,1615006765
4,vaini,-21.2,-175.2,84.2,79,75,14.97,TO,1615006782
5,atuona,-9.8,-139.0333,79.47,73,33,14.9,PF,1615006766
6,dikson,73.5069,80.5464,-29.36,85,67,12.1,RU,1615006843
7,maldonado,-34.6667,-54.9167,68.0,68,75,14.97,UY,1615006886
8,nyurba,63.2842,118.3319,0.32,92,100,5.21,RU,1615006935
9,davila,18.4726,120.5763,86.0,74,20,6.91,PH,1615006935
10,souillac,-20.5167,57.5167,78.8,83,75,6.91,MU,1615006831
11,mumford,5.2618,-0.759,79.83,87,100,11.3,GH,1615006936
12,mar del plata,-38.0023,-57.5575,64.0,72,75,8.05,AR,1615006544
13,revelstoke,50.9832,-118.2023,35.6,87,90,2.3,CA,1615006937
14,rikitea,-23.1203,-134.9692,80.53,74,36,8.28,PF,1615006764
15,bluff,-46.6,168.3333,64.0,52,73,7.0,NZ,1615006789
16,eureka,40.8021,-124.1637,42.01,96,100,5.44,US,1615006638
17,kavieng,-2.5744,150.7967,84.06,72,81,4.88,PG,1615006886
18,port alfred,-33.5906,26.891,66.0,91,0,19.6,ZA,1615006773
19,bethel,41.3712,-73.414,33.8,32,90,6.91,US,1615006610
20,ilulissat,69.2167,-51.1,19.4,93,90,11.5,GL,1615006776
21,wuxue,29.8506,115.5525,52.11,85,100,9.24,CN,1615006939
22,yellowknife,62.456,-114.3525,19.4,93,75,13.8,CA,1615006674
23,coquimbo,-29.9533,-71.3436,60.8,94,0,3.44,CL,1615006860
24,hithadhoo,-0.6,73.0833,83.82,62,22,2.26,MV,1615006833
25,inirida,3.8653,-67.9239,74.25,90,94,1.83,CO,1615006816
26,waipawa,-41.4122,175.5153,64.4,68,100,23.02,NZ,1615006787
27,ribeira grande,38.5167,-28.7,59.61,83,83,12.48,PT,1615006830
28,jamestown,42.097,-79.2353,27.0,95,90,13.73,US,1615006734
29,albany,42.6001,-73.9662,26.01,51,82,1.01,US,1615006697
30,bedi,22.5,70.05,81.05,52,0,7.61,IN,1615007232
31,cabo san lucas,22.8909,-109.9124,66.2,52,20,5.75,MX,1615006771
32,cidreira,-30.1811,-50.2056,70.39,85,19,9.84,BR,1615006780
33,labuhan,-6.8844,112.2051,83.05,74,90,5.1,ID,1615006800
34,avarua,-21.2078,-159.775,84.2,74,20,11.5,CK,1615006869
35,esperance,-33.8667,121.9,69.8,78,90,9.22,AU,1615006822
36,ushuaia,-54.8,-68.3,51.8,66,75,17.27,AR,1615006534
37,qaanaaq,77.484,-69.3632,-16.35,67,0,5.95,GL,1615006772
38,long eaton,52.8985,-1.2714,36.0,64,75,2.3,GB,1615007234
39,makakilo city,21.3469,-158.0858,71.6,73,90,4.61,US,1615007234
40,kruisfontein,-34.0033,24.7314,61.0,91,0,5.95,ZA,1615006882
41,ichinohe,40.2069,141.3017,39.2,45,40,20.71,JP,1615007234
42,longyearbyen,78.2186,15.6401,8.6,61,40,23.02,SJ,1615006858
43,busselton,-33.65,115.3333,75.99,77,62,4.0,AU,1615006767
44,banda aceh,5.5577,95.3222,87.44,60,55,3.67,ID,1615007235
45,te anau,-45.4167,167.7167,55.58,62,63,5.19,NZ,1615006784
46,tulsipur,28.131,82.2973,79.9,15,0,6.76,NP,1615007236
47,gorontalo,0.5412,123.0595,84.06,75,80,1.83,ID,1615007236
48,barrow,71.2906,-156.7887,-7.6,64,1,11.5,US,1615006823
49,hualmay,-11.0964,-77.6139,72.97,74,100,5.86,PE,1615007237
50,skegness,53.1436,0.3363,39.0,81,75,1.14,GB,1615007237
51,sangar,63.9242,127.4739,-17.84,84,45,1.21,RU,1615007238
52,arraial do cabo,-22.9661,-42.0278,77.5,89,98,4.0,BR,1615006864
53,kutum,14.2,24.6667,54.39,33,3,7.72,SD,1615006768
54,thompson,55.7435,-97.8558,10.4,79,1,5.75,CA,1615006788
55,hasaki,35.7333,140.8333,62.6,77,75,5.75,JP,1615006833
56,ulladulla,-35.35,150.4667,69.8,43,75,10.36,AU,1615007239
57,champerico,14.3,-91.9167,63.0,97,2,3.0,GT,1615007239
58,kapaa,22.0752,-159.319,68.0,83,90,18.41,US,1615006790
59,novo aripuana,-5.1206,-60.3797,73.71,96,100,1.32,BR,1615007240
60,mosjoen,65.836,13.1908,37.4,87,75,12.66,NO,1615007240
61,new norfolk,-42.7826,147.0587,63.0,42,78,1.99,AU,1615006789
62,luderitz,-26.6481,15.1594,68.88,43,0,9.75,NA,1615006854
63,fortuna,40.5982,-124.1573,41.0,100,90,3.44,US,1615006843
64,tahta,26.7693,31.5021,50.0,50,0,6.91,EG,1615007241
65,aquiraz,-3.9014,-38.3911,82.0,83,75,10.36,BR,1615007241
66,pacific grove,36.6177,-121.9166,57.2,72,1,3.44,US,1615006680
67,hovd,48.0056,91.6419,30.51,62,0,0.65,MN,1615007241
68,homer,59.6425,-151.5483,30.0,86,90,6.91,US,1615007242
69,najran,17.4924,44.1277,59.0,38,0,6.91,SA,1615007243
70,vao,-22.6667,167.4833,81.09,78,100,42.77,NC,1615006794
71,shimsk,58.212,30.7127,20.88,95,0,5.7,RU,1615007243
72,providencia,28.7167,-111.5833,62.01,45,14,10.0,MX,1615007244
73,kirakira,-10.4544,161.9205,82.26,77,100,10.92,SB,1615006901
74,byron bay,-28.65,153.6167,77.0,57,75,12.66,AU,1615007244
75,kroonstad,-27.6504,27.2349,57.0,94,0,10.94,ZA,1615007170
76,catamarca,-28.4696,-65.7852,63.0,84,0,12.08,AR,1615007245
77,ayorou,14.7308,0.9174,76.14,18,3,9.35,NE,1615006642
78,singaraja,-8.112,115.0882,84.56,65,100,4.56,ID,1615007245
79,tuktoyaktuk,69.4541,-133.0374,-9.4,77,1,10.36,CA,1615006790
80,meulaboh,4.1363,96.1285,79.47,87,99,4.54,ID,1615006798
81,jurm,36.8648,70.8342,47.46,49,100,4.27,AF,1615007246
82,luanda,-8.8368,13.2343,78.8,89,75,3.44,AO,1615007247
83,eldama ravine,0.0516,35.7308,61.65,65,85,2.39,KE,1615007247
84,sola,-13.8833,167.55,82.98,78,99,23.22,VU,1615006896
85,pangnirtung,66.1451,-65.7125,3.16,87,99,0.96,CA,1615006872
86,quiindy,-25.9667,-57.2667,69.62,85,1,2.75,PY,1615007248
87,hobart,-42.8794,147.3294,68.0,48,75,17.27,AU,1615006691
88,swellendam,-34.0226,20.4417,55.4,94,0,1.14,ZA,1615007248
89,nikolskoye,59.7035,30.7861,18.0,85,0,4.47,RU,1615006766
90,ixtapa,20.7,-105.2,69.01,94,1,2.89,MX,1615007249
91,porto novo,6.4965,2.6036,80.65,82,100,9.66,BJ,1615007249
92,ouadda,8.0777,22.4007,70.36,21,4,8.25,CF,1615007249
93,hermanus,-34.4187,19.2345,61.0,91,0,3.02,ZA,1615006765
94,chokurdakh,70.6333,147.9167,-6.75,91,100,21.34,RU,1615006867
95,cherskiy,68.75,161.3,-12.15,88,100,9.06,RU,1615006792
96,singkang,2.1006,102.7994,91.4,58,20,8.05,MY,1615007250
97,vila,42.0304,-8.1588,42.01,92,4,3.76,PT,1615006920
98,puerto ayora,-0.7393,-90.3518,75.0,96,34,1.01,EC,1615006794
99,rundu,-17.9333,19.7667,66.06,65,68,0.13,NA,1615007251
100,norman wells,65.282,-126.8329,-0.4,78,40,4.61,CA,1615006871
101,butaritari,3.0707,172.7902,81.23,76,69,13.58,KI,1615006783
102,los llanos de aridane,28.6585,-17.9182,64.4,63,0,23.02,ES,1615007252
103,sao filipe,14.8961,-24.4956,70.61,76,83,12.1,CV,1615006788
104,cap malheureux,-19.9842,57.6142,84.0,71,100,5.99,MU,1615006791
105,hilo,19.7297,-155.09,68.0,83,90,6.91,US,1615006857
106,severo-kurilsk,50.6789,156.125,29.14,96,100,14.14,RU,1615006785
107,bouca,6.5105,18.2733,66.9,26,12,2.06,CF,1615007253
108,sitka,57.0531,-135.33,37.4,87,90,10.36,US,1615006859
109,joshimath,30.5667,79.5667,61.84,23,0,4.36,IN,1615007254
110,salalah,17.0151,54.0924,71.6,60,0,2.3,OM,1615006799
111,zhuanghe,39.7008,122.9911,37.15,51,0,11.68,CN,1615007254
112,chuy,-33.6971,-53.4616,65.48,79,99,6.44,UY,1615006780
113,kingman,35.1894,-114.053,50.0,32,1,11.5,US,1615007255
114,okhotsk,59.3833,143.3,-10.5,82,95,16.26,RU,1615007255
115,mocajuba,-2.5842,-49.5072,73.74,97,100,2.21,BR,1615007255
116,mahebourg,-20.4081,57.7,78.8,83,75,6.91,MU,1615006512
117,zeya,53.75,127.2667,1.83,83,0,3.74,RU,1615007256
118,khatanga,71.9667,102.5,-14.1,85,91,11.41,RU,1615006766
119,loknya,56.83,30.1467,18.27,95,23,5.99,RU,1615007257
120,kushmurun,52.4503,64.6311,28.24,98,100,5.37,KZ,1615006792
121,manta,-0.95,-80.7333,75.2,100,0,1.39,EC,1615007125
122,xuddur,4.1213,43.8894,72.39,57,71,21.18,SO,1615006878
123,loreto,22.2667,-101.9667,57.11,67,34,9.86,MX,1615007257
124,the valley,18.217,-63.0578,77.0,78,20,5.75,AI,1615007258
125,east london,-33.0153,27.9116,66.2,88,0,5.75,ZA,1615006801
126,belaya gora,68.5333,146.4167,-12.82,87,100,21.09,RU,1615007258
127,cacapava,-23.1008,-45.7069,69.71,87,100,3.02,BR,1615007258
128,naze,28.3667,129.4833,69.8,64,75,6.91,JP,1615007259
129,yulara,-25.2406,130.9889,96.8,9,17,5.75,AU,1615006916
130,katsuura,35.1333,140.3,60.8,88,75,9.22,JP,1615006796
131,tiksi,71.6872,128.8694,-21.89,86,37,3.49,RU,1615006769
132,normandin,48.8333,-72.5321,12.2,79,100,17.27,CA,1615007260
133,bredasdorp,-34.5322,20.0403,55.4,94,1,1.14,ZA,1615006777
134,carnarvon,-24.8667,113.6333,82.4,74,1,17.27,AU,1615006784
135,geraldton,-28.7667,114.6,86.0,51,2,14.97,AU,1615006828
136,diego de almagro,-26.3667,-70.05,58.48,70,0,1.83,CL,1615007261
137,kaitangata,-46.2817,169.8464,59.0,72,52,7.09,NZ,1615006902
138,saint-philippe,-21.3585,55.7679,84.2,61,0,1.14,RE,1615006768
139,hofn,64.2539,-15.2082,38.68,70,0,4.81,IS,1615006768
140,roebourne,-20.7833,117.1333,93.47,34,0,12.35,AU,1615007262
141,georgetown,5.4112,100.3354,86.0,78,20,13.8,MY,1615006599
142,mecca,21.4267,39.8261,77.49,26,0,4.76,SA,1615007262
143,sovetskiy,61.3614,63.5842,10.27,95,99,3.13,RU,1615006754
144,necochea,-38.5473,-58.7368,51.01,91,1,3.06,AR,1615007263
145,yukamenskoye,57.8865,52.2416,-1.86,92,48,6.38,RU,1615007263
146,cape town,-33.9258,18.4232,62.01,88,0,5.75,ZA,1615006776
147,sibolga,1.7427,98.7792,83.16,69,100,3.2,ID,1615006873
148,angoram,-4.0625,144.0661,83.66,84,68,5.12,PG,1615007264
149,rudbar,30.15,62.6,77.77,19,27,12.66,AF,1615007264
150,castro,-24.7911,-50.0119,61.2,98,72,4.29,BR,1615006772
151,svetlyy,54.675,20.1347,30.99,93,20,2.24,RU,1615007264
152,lagoa,39.05,-27.9833,58.51,77,100,9.42,PT,1615007265
153,sigiriya,7.9518,80.7426,86.74,53,97,4.68,LK,1615007265
154,coihaique,-45.5752,-72.0662,47.8,71,23,6.06,CL,1615006798
155,saint-augustin,51.226,-58.6502,9.88,94,59,1.21,CA,1615006879
156,vestmannaeyjar,63.4427,-20.2734,44.08,79,78,9.51,IS,1615006992
157,xiaoweizhai,26.1903,107.5125,53.4,80,100,7.4,CN,1615007266
158,beringovskiy,63.05,179.3167,-18.63,85,1,2.06,RU,1615006860
159,rumuruti,0.267,36.5389,64.56,58,96,8.84,KE,1615007266
160,mahibadhoo,3.7833,72.9667,82.67,74,63,11.86,MV,1615007267
161,vaitape,-16.5167,-151.75,82.76,71,100,6.82,PF,1615007267
162,port macquarie,-31.4333,152.9167,73.99,57,88,3.0,AU,1615007267
163,murray,40.6669,-111.888,46.0,47,20,5.91,US,1615007268
164,nanortalik,60.1432,-45.2371,33.35,90,100,13.04,GL,1615007268
165,clyde river,70.4692,-68.5914,-18.4,76,1,18.41,CA,1615006795
166,ortigueira,-24.2083,-50.9494,63.03,100,53,1.74,BR,1615007269
167,vila franca do campo,37.7167,-25.4333,50.0,87,20,4.61,PT,1615007269
168,havoysund,70.9963,24.6622,24.8,100,75,1.14,NO,1615006897
169,belmonte,-15.8631,-38.8828,75.2,78,0,4.61,BR,1615006782
170,uyuni,-20.4597,-66.825,49.37,57,69,5.97,BO,1615006918
171,katete,-0.7818,29.7544,64.36,93,100,1.77,UG,1615007270
172,grajau,-5.8194,-46.1386,72.34,94,92,2.89,BR,1615007270
173,damghan,36.1683,54.348,43.48,59,0,5.19,IR,1615007235
174,kamoke,31.9744,74.2244,73.4,43,40,6.91,PK,1615007271
175,wejherowo,54.6057,18.2356,26.01,93,0,1.14,PL,1615007272
176,noumea,-22.2763,166.4572,86.0,74,90,39.12,NC,1615006753
177,canto do buriti,-8.11,-42.9444,72.0,88,19,2.62,BR,1615007272
178,neiafu,-18.65,-173.9833,82.4,78,75,3.44,TO,1615007273
179,port elizabeth,-33.918,25.5701,68.0,88,0,10.36,ZA,1615006793
180,hambantota,6.1241,81.1185,87.8,70,20,6.91,LK,1615007273
181,marsh harbour,26.5412,-77.0636,69.89,62,94,14.58,BS,1615007117
182,ust-kuyga,70.0167,135.6,-16.22,84,100,4.9,RU,1615006889
183,viseu,40.661,-7.9097,48.0,85,0,4.0,PT,1615007274
184,lasa,46.6166,10.7002,36.0,86,0,4.61,IT,1615006862
185,cayenne,4.9333,-52.3333,80.01,94,90,1.14,GF,1615007275
186,dwarka,22.2394,68.9678,81.48,54,0,8.23,IN,1615006922
187,quelimane,-17.8786,36.8883,75.88,94,69,4.63,MZ,1615007276
188,qaqortoq,60.7167,-46.0333,42.8,36,90,13.8,GL,1615007276
189,tuatapere,-46.1333,167.6833,63.0,54,100,7.0,NZ,1615006890
190,victoria,22.2855,114.1577,73.0,89,77,1.01,HK,1615006669
191,shimoda,34.6667,138.95,57.99,100,75,9.22,JP,1615007277
192,acarau,-2.8856,-40.12,78.94,81,99,9.33,BR,1615007277
193,bhuj,23.2667,69.6667,87.22,27,0,8.1,IN,1615007277
194,saldanha,-33.0117,17.9442,60.8,88,5,5.75,ZA,1615006835
195,sulphur,30.2366,-93.3774,57.2,82,90,10.36,US,1615007278
196,san patricio,28.017,-97.5169,68.0,34,1,12.66,US,1615006879
197,svetlogorsk,52.6333,29.7333,21.76,92,11,6.11,BY,1615007278
198,berlevag,70.8578,29.0864,22.05,93,100,12.55,NO,1615007279
199,sorland,67.667,12.6934,29.34,95,100,39.59,NO,1615007279
200,rawson,-43.3002,-65.1023,74.73,56,1,26.73,AR,1615006907
201,suhbaatar,50.2314,106.2078,21.88,88,0,4.32,MN,1615007280
202,alice springs,-23.7,133.8833,95.0,10,0,8.05,AU,1615007280
203,kachiry,53.0675,76.1036,27.52,95,100,24.25,KZ,1615007280
204,bandarbeyla,9.4942,50.8122,77.4,70,84,14.45,SO,1615006852
205,caravelas,-17.7125,-39.2481,75.31,85,71,9.1,BR,1615006882
206,provideniya,64.3833,-173.3,-14.71,87,72,6.13,RU,1615006841
207,comodoro rivadavia,-45.8667,-67.5,78.8,44,0,17.27,AR,1615006617
208,rocha,-34.4833,-54.3333,65.68,73,100,7.02,UY,1615006586
209,ossora,59.2353,163.0719,-6.65,82,100,6.35,RU,1615007282
210,buraydah,26.326,43.975,50.0,76,20,4.61,SA,1615006783
211,sri aman,1.2376,111.4621,86.0,79,40,4.61,MY,1615007282
212,qui nhon,13.7667,109.2333,81.39,65,0,8.77,VN,1615007282
213,arlit,18.7369,7.3853,71.08,20,7,6.91,NE,1615006513
214,kodiak,57.79,-152.4072,28.4,59,90,18.41,US,1615006775
215,otjiwarongo,-20.4637,16.6477,58.75,65,9,2.64,NA,1615007126
216,anloga,5.7947,0.8973,84.2,84,20,10.36,GH,1615006895
217,znamenskoye,57.1281,73.8282,30.94,98,100,10.6,RU,1615007284
218,marsaxlokk,35.8419,14.5431,55.99,94,20,4.61,MT,1615007284
219,lagos,6.5833,3.75,81.18,83,99,5.93,NG,1615007284
220,ancud,-41.8697,-73.8203,53.01,87,0,2.3,CL,1615006897
221,milford,41.2223,-73.0565,33.8,34,90,6.91,US,1615007281
222,newtownards,54.5924,-5.6909,37.99,70,90,8.05,GB,1615007285
223,alyangula,-13.8483,136.4192,89.6,70,0,12.66,AU,1615007286
224,jalu,29.0331,21.5482,55.15,39,0,12.93,LY,1615006774
225,anadyr,64.75,177.4833,-11.2,64,0,6.71,RU,1615007286
226,big rapids,43.6981,-85.4837,27.0,63,1,6.91,US,1615007287
227,muzhi,65.3667,64.6667,1.96,91,99,4.61,RU,1615007287
228,kropotkin,45.4375,40.5756,37.71,74,82,4.65,RU,1615007287
229,kavaratti,10.5669,72.642,82.65,61,54,6.58,IN,1615006872
230,isangel,-19.55,169.2667,86.0,74,90,28.77,VU,1615006820
231,juneau,58.3019,-134.4197,35.6,87,90,14.97,US,1615007288
232,kalivai,35.4512,24.1735,51.8,87,20,5.44,GR,1615007288
233,maniitsoq,65.4167,-52.9,29.97,99,100,5.5,GL,1615007288
234,chapais,49.7834,-74.8492,6.8,78,90,10.36,CA,1615006788
235,wuchi,29.3786,103.023,41.14,89,100,2.37,CN,1615007289
236,maceio,-9.6658,-35.7353,73.4,94,0,3.44,BR,1615007289
237,starkville,33.4504,-88.8184,48.2,37,90,12.66,US,1615007002
238,college,64.8569,-147.8028,5.0,71,40,5.75,US,1615006784
239,iqaluit,63.7506,-68.5145,-4.0,77,75,28.77,CA,1615006793
240,middlebury,44.0153,-73.1673,15.01,57,90,6.91,US,1615007290
241,laguna,38.421,-121.4238,55.99,71,1,12.66,US,1615006850
242,nova olimpia,-14.7972,-57.2881,70.83,96,100,1.03,BR,1615007290
243,quang ngai,15.1167,108.8,85.69,58,19,8.97,VN,1615007291
244,nambucca heads,-30.65,153.0,73.99,68,75,9.22,AU,1615007291
245,awjilah,29.1081,21.2869,56.03,37,0,14.12,LY,1615006779
246,airai,-8.9266,125.4092,72.82,87,27,2.24,TL,1615006842
247,russell,32.3502,-85.1999,55.4,37,90,9.22,US,1615007292
248,itarema,-2.9248,-39.9167,78.62,80,41,8.25,BR,1615006913
249,yantal,56.8471,105.2542,24.89,93,100,14.38,RU,1615006913
250,saskylakh,71.9167,114.0833,-23.26,83,17,10.49,RU,1615006887
251,yenagoa,4.9247,6.2642,77.65,90,59,3.71,NG,1615007293
252,riyadh,24.6877,46.7219,60.8,41,0,6.91,SA,1615007293
253,saint george,37.1041,-113.5841,62.6,17,1,3.44,US,1615006592
254,severo-yeniseyskiy,60.3725,93.0408,19.81,94,97,11.56,RU,1615007293
255,talaya,61.3833,152.75,-14.71,79,100,11.81,RU,1615007294
256,tilichiki,60.4667,166.1,-17.55,87,20,4.54,RU,1615007294
257,ust-nera,64.5667,143.2,-19.62,76,100,6.53,RU,1615006835
258,hay river,60.8156,-115.7999,15.8,86,100,1.14,CA,1615007098
259,changji,44.0167,87.3167,32.0,93,20,4.47,CN,1615007295
260,askino,56.0901,56.5783,10.33,95,100,11.18,RU,1615007295
261,pochutla,15.7432,-96.4661,75.99,77,0,2.71,MX,1615006834
262,griffith,41.5284,-87.4237,28.0,100,1,3.83,US,1615007296
263,port keats,-14.25,129.55,88.68,71,24,12.03,AU,1615007296
264,ponta do sol,32.6667,-17.1,57.99,59,59,5.01,PT,1615006900
265,soyo,-6.1349,12.3689,80.56,87,100,9.4,AO,1615007296
266,aguas formosas,-17.0822,-40.9358,68.16,77,55,3.67,BR,1615007296
267,nyrob,60.733,56.7202,5.77,94,100,4.23,RU,1615007297
268,port lincoln,-34.7333,135.8667,68.92,58,100,9.64,AU,1615006802
269,vostok,46.4856,135.8833,0.91,91,100,9.84,RU,1615007297
270,ixcatepec,21.2,-97.95,67.12,93,25,3.42,MX,1615007298
271,haines junction,60.7522,-137.5108,14.0,79,96,1.14,CA,1615007298
272,elizabeth city,36.2946,-76.2511,33.8,69,1,5.41,US,1615007298
273,la orilla,17.9833,-102.2333,70.38,86,0,4.07,MX,1615007299
274,taunggyi,20.7833,97.0333,81.54,17,92,3.76,MM,1615006856
275,berdigestyakh,62.0989,126.6992,-6.5,87,52,3.49,RU,1615007299
276,tasiilaq,65.6145,-37.6368,26.6,93,90,37.98,GL,1615006781
277,umm lajj,25.0213,37.2685,73.69,27,0,9.53,SA,1615007062
278,constitucion,-35.3333,-72.4167,56.97,89,17,6.02,CL,1615006556
279,torbay,47.6666,-52.7314,34.0,100,90,8.05,CA,1615006779
280,bushehr,28.9684,50.8385,62.6,63,0,21.85,IR,1615007243
281,serenje,-13.2325,30.2352,63.43,97,100,1.05,ZM,1615007301
282,tabou,4.423,-7.3528,77.81,88,71,5.48,CI,1615006908
283,aljezur,37.3191,-8.8033,52.23,88,32,9.04,PT,1615007301
284,palafrugell,41.9174,3.1631,50.0,87,75,4.61,ES,1615007301
285,olinda,-8.0089,-34.8553,78.8,69,20,5.75,BR,1615007302
286,shahr-e babak,30.1165,55.1186,51.4,41,0,5.19,IR,1615007302
287,lompoc,34.6391,-120.4579,46.4,87,20,3.44,US,1615006657
288,biltine,14.5333,20.9167,70.25,19,34,16.67,TD,1615007302
289,sisimiut,66.9395,-53.6735,14.52,95,100,8.46,GL,1615007303
290,port moresby,-9.4431,147.1797,84.2,79,75,11.5,PG,1615007303
291,lavrentiya,65.5833,-171.0,-8.91,89,73,6.76,RU,1615006916
292,klaksvik,62.2266,-6.589,42.8,87,75,13.8,FO,1615006819
293,mayor pablo lagerenza,-19.9309,-60.7718,72.43,74,59,4.63,PY,1615007304
294,husavik,66.0449,-17.3389,35.6,87,90,9.86,IS,1615006869
295,ostrovnoy,68.0531,39.5131,5.59,93,100,10.87,RU,1615006832
296,egvekinot,66.3167,-179.1667,-25.82,90,90,3.27,RU,1615007304
297,bilma,18.6853,12.9164,66.72,22,41,7.74,NE,1615006788
298,mabaruma,8.2,-59.7833,72.66,98,66,3.42,GY,1615007305
299,sao paulo de olivenca,-3.3783,-68.8725,72.79,98,46,0.94,BR,1615007305
300,sechelt,49.4664,-123.7694,48.0,78,96,5.01,CA,1615007306
301,saint anthony,45.0205,-93.218,32.0,69,1,3.38,US,1615006872
302,marienburg,54.0359,19.0266,23.0,100,0,3.44,PL,1615006499
303,kaffrine,14.1059,-15.5508,71.6,28,0,6.62,SN,1615007307
304,padang,-0.9492,100.3543,86.0,66,20,4.61,ID,1615006909
305,san policarpo,12.1791,125.5072,81.72,74,97,14.81,PH,1615007307
306,bengkulu,-3.8004,102.2655,81.77,83,33,5.28,ID,1615006851
307,punta gorda,26.9298,-82.0454,62.01,88,1,3.44,US,1615007308
308,nakusp,50.2499,-117.8023,37.4,87,100,1.14,CA,1615007308
309,shingu,33.7333,135.9833,64.4,59,75,24.16,JP,1615006878
310,kenai,60.5544,-151.2583,26.01,86,90,4.38,US,1615007309
311,voi,-3.3945,38.563,75.49,54,100,3.94,KE,1615007309
312,caala,-12.8525,15.5606,59.14,95,92,1.77,AO,1615007310
313,kharopon,41.2667,23.3833,46.0,85,94,3.38,GR,1615007310
314,sur,22.5667,59.5289,88.03,28,0,3.78,OM,1615007310
315,moerai,-22.4333,-151.3333,80.55,76,98,14.41,PF,1615007311
316,colombia,20.9881,-77.4297,66.2,82,0,6.91,CU,1615007311
317,nemuro,43.3236,145.575,24.8,58,75,18.41,JP,1615007311
318,jaciara,-15.9653,-54.9683,70.36,95,100,0.6,BR,1615007312
319,tevriz,57.509,72.4042,26.11,97,100,10.98,RU,1615007312
320,otrado-kubanskoye,45.2442,40.8408,37.85,73,76,6.73,RU,1615007312
321,manokwari,-0.8667,134.0833,81.27,78,100,8.32,ID,1615007313
322,perigueux,45.1833,0.7167,37.0,86,0,5.3,FR,1615007313
323,roald,62.5833,6.1333,41.0,93,90,24.16,NO,1615007313
324,kabo,7.6994,18.629,69.89,23,22,3.96,CF,1615007313
325,stornoway,58.2093,-6.3865,39.2,87,90,8.05,GB,1615006882
326,bathsheba,13.2167,-59.5167,77.0,69,20,19.57,BB,1615006780
327,leshukonskoye,64.8989,45.7622,-15.54,89,76,1.95,RU,1615007314
328,morehead,37.2711,-87.1764,41.0,56,1,5.75,US,1615007314
329,lebu,-37.6167,-73.65,55.62,93,40,7.29,CL,1615006870
330,ranau,5.9538,116.6641,89.6,74,20,5.75,MY,1615007315
331,bongandanga,1.5,21.05,72.27,65,100,1.63,CD,1615007315
332,pavilosta,56.8879,21.1859,32.0,86,66,1.14,LV,1615007315
333,digras,20.1167,77.7167,90.95,10,0,7.11,IN,1615007316
334,kabompo,-13.5927,24.2008,61.83,94,59,2.28,ZM,1615007316
335,puerto armuelles,8.2833,-82.8667,61.0,57,3,4.0,PA,1615007316
336,nichinan,31.6,131.3667,64.4,68,75,17.27,JP,1615007095
337,araouane,18.9048,-3.5265,69.94,21,0,11.3,ML,1615006847
338,caxito,-8.5785,13.6643,78.8,89,75,3.44,AO,1615007317
339,tigil,57.8,158.6667,-6.41,87,98,10.6,RU,1615007318
340,marawi,7.9986,124.2928,84.99,75,91,8.01,PH,1615006845
341,caceres,39.522,-6.3748,45.0,87,17,7.05,ES,1615007318
342,ahipara,-35.1667,173.1667,68.31,73,100,15.99,NZ,1615006849
343,port blair,11.6667,92.75,86.0,74,20,10.36,IN,1615006828
344,dali,25.7,100.1833,61.34,31,13,10.16,CN,1615006879
345,leon,21.1167,-101.6667,66.2,20,1,5.75,MX,1615007319
346,uspenka,48.3903,39.1619,33.19,95,100,10.38,UA,1615007319
347,faanui,-16.4833,-151.75,82.58,67,86,3.15,PF,1615006839
348,mazagao,-0.115,-51.2894,77.0,100,75,3.44,BR,1615006770
349,verkhniye kigi,55.4083,58.6044,9.86,93,80,12.28,RU,1615007320
350,tela,15.7833,-87.45,71.6,94,20,4.61,HN,1615007321
351,paita,-5.0892,-81.1144,75.9,74,84,6.46,PE,1615006891
352,sakakah,29.9697,40.2064,46.4,57,0,5.1,SA,1615006776
353,ordubad,38.9059,46.0234,35.6,87,20,4.61,AZ,1615007321
354,kaeo,-35.1,173.7833,73.0,69,100,13.0,NZ,1615006893
355,northam,51.0333,-4.2167,32.0,80,0,1.01,GB,1615007322
356,aklavik,68.2191,-135.0107,-2.2,78,11,2.3,CA,1615006919
357,ler,8.3018,30.1418,74.66,20,12,4.27,SS,1615007323
358,codrington,-38.2667,141.9667,62.15,64,67,13.82,AU,1615006773
359,lima,-12.0432,-77.0282,73.4,83,75,10.36,PE,1615006671
360,axim,4.8699,-2.2405,79.16,87,92,7.87,GH,1615007323
361,qandala,11.472,49.8728,77.83,47,19,5.41,SO,1615007324
362,pisco,-13.7,-76.2167,75.2,73,0,3.44,PE,1615006853
363,chernyy yar,48.0624,46.1091,38.41,78,98,11.86,RU,1615007324
364,terra santa,-2.1042,-56.4869,74.1,96,99,2.44,BR,1615007325
365,bandar-e anzali,37.4727,49.4622,42.8,100,0,4.61,IR,1615007325
366,vila velha,-20.3297,-40.2925,78.8,69,0,18.41,BR,1615006813
367,pouebo,-20.4,164.5667,77.05,76,100,30.96,NC,1615007325
368,gornopravdinsk,60.05,69.9,16.79,96,92,3.24,RU,1615007326
369,kanniyakumari,8.0833,77.5667,80.87,65,33,10.13,IN,1615007326
370,chicama,-7.8447,-79.1469,73.85,77,99,4.76,PE,1615007326
371,vardo,70.3705,31.1107,23.31,96,100,19.22,NO,1615006902
372,nogales,31.3086,-110.9422,62.6,16,1,9.22,MX,1615007326
373,gat,31.61,34.7642,44.6,87,0,2.3,IL,1615006805
374,beloha,-25.1667,45.05,77.49,79,20,8.48,MG,1615006885
375,devonport,-41.1667,146.35,64.99,56,10,11.01,AU,1615007327
376,atar,20.5169,-13.0499,65.17,28,0,12.95,MR,1615007327
377,palestine,31.9216,35.2033,50.0,87,0,2.3,PS,1615007328
378,muisne,0.6,-80.0333,74.8,86,89,2.24,EC,1615007328
379,teofilo otoni,-17.8575,-41.5053,67.33,89,82,1.7,BR,1615007328
380,havelock,34.8791,-76.9013,41.0,80,1,3.44,US,1615007329
381,isabela,6.7085,121.9711,84.2,74,75,6.91,PH,1615007329
382,bartlesville,36.7473,-95.9808,35.6,93,1,5.17,US,1615007329
383,yar-sale,66.8333,70.8333,5.31,95,96,3.62,RU,1615006857
384,rio grande,-32.035,-52.0986,64.0,91,9,1.99,BR,1615006883
385,meghri,38.9029,46.2446,45.0,55,0,6.38,AM,1615007330
386,santa luzia,-19.7697,-43.8514,75.2,60,75,6.91,BR,1615007330
387,kununurra,-15.7667,128.7333,95.0,59,11,6.91,AU,1615007331
388,aksu,41.1231,80.2644,49.32,48,92,7.56,CN,1615007331
389,solnechnyy,50.7214,136.6319,3.45,87,61,3.87,RU,1615007331
390,carutapera,-1.195,-46.02,76.3,89,95,4.23,BR,1615006873
391,nabire,-3.3667,135.4833,84.09,69,91,4.94,ID,1615007332
392,agadez,19.75,10.25,66.51,23,0,7.14,NE,1615007333
393,pemangkat,1.1667,108.9667,83.88,77,16,12.73,ID,1615007333
394,takaka,-40.85,172.8,57.99,84,60,1.01,NZ,1615007333
395,ambon,-3.6954,128.1814,82.4,78,40,18.41,ID,1615007334
396,broome,42.2506,-75.833,25.0,68,90,13.8,US,1615006842
397,pangoa,-12.1167,-73.0,67.78,96,100,1.14,PE,1615007334
398,palmer,42.1584,-72.3287,26.01,54,40,6.91,US,1615007241
399,dingle,10.9995,122.6711,85.77,63,46,14.5,PH,1615007320
400,leningradskiy,69.3833,178.4167,-8.05,90,100,5.1,RU,1615006782
401,wanaka,-44.7,169.15,50.56,71,93,5.23,NZ,1615007335
402,chiredzi,-21.05,31.6667,67.73,89,1,2.33,ZW,1615007335
403,plettenberg bay,-34.0527,23.3716,66.2,69,0,3.42,ZA,1615007336
404,beidao,34.5686,105.8933,37.0,65,100,1.99,CN,1615007336
405,hervey bay,-25.2986,152.8535,82.0,65,15,8.99,AU,1615007336
406,kasaragod,12.5,75.0,86.0,58,20,3.44,IN,1615007337
407,talnakh,69.4865,88.3972,-6.93,83,66,3.78,RU,1615006790
408,rio cuarto,-33.1307,-64.3499,66.0,95,0,8.21,AR,1615007337
409,muros,42.7762,-9.0603,50.0,75,33,3.0,ES,1615006897
410,san vicente,-26.6167,-54.1333,61.86,100,33,2.04,AR,1615007338
411,jaszalsoszentgyorgy,47.3667,20.1,33.8,55,0,9.22,HU,1615007338
412,mana,5.6592,-53.7767,77.9,84,100,11.56,GF,1615007338
413,opuwo,-18.0607,13.84,66.69,50,17,5.82,NA,1615006771
414,surt,31.2089,16.5887,62.96,36,1,11.54,LY,1615007339
415,bambous virieux,-20.3428,57.7575,84.0,83,75,6.91,MU,1615006884
416,kentau,43.5206,68.5094,47.07,43,87,2.46,KZ,1615007339
417,longkou,37.6508,120.3286,30.42,87,99,23.02,CN,1615007339
418,lorengau,-2.0226,147.2712,84.47,74,95,9.17,PG,1615006782
419,sorong,-0.8833,131.25,81.46,79,100,10.45,ID,1615006844
420,batagay,67.6333,134.6333,-17.95,85,100,1.14,RU,1615007340
421,terme,41.2092,36.9739,53.6,37,40,6.91,TR,1615007341
422,amberley,39.2048,-84.428,36.0,55,1,6.91,US,1615007341
423,charters towers,-20.1,146.2667,90.48,29,9,2.86,AU,1615007341
424,reyes,-14.3167,-67.3833,70.45,98,100,1.86,BO,1615007342
425,broken hill,-31.95,141.4333,78.8,21,2,6.91,AU,1615006895
426,harnosand,62.6323,17.9379,36.0,93,20,3.44,SE,1615007342
427,pevek,69.7008,170.3133,-10.34,91,100,5.12,RU,1615006882
428,moree,-29.4667,149.85,89.6,18,0,8.05,AU,1615007343
429,licheng,23.2955,113.8284,78.01,100,75,6.71,CN,1615007343
430,upernavik,72.7868,-56.1549,-15.93,86,98,15.35,GL,1615006786
431,porto belo,-27.1578,-48.5531,73.99,100,9,5.01,BR,1615007344
432,port hardy,50.6996,-127.4199,42.8,93,90,14.97,CA,1615006857
433,praia,14.9215,-23.5087,69.8,73,0,20.71,CV,1615007344
434,dawson creek,55.7666,-120.2362,37.4,81,1,17.27,CA,1615007345
435,raudeberg,61.9875,5.1352,39.99,93,100,20.31,NO,1615007345
436,talavera,15.6167,120.9333,89.6,48,75,2.3,PH,1615007346
437,saint-pierre,-21.3393,55.4781,84.2,61,0,1.14,RE,1615006884
438,rotterdam,51.9225,4.4792,35.01,100,0,1.14,NL,1615007346
439,batagay-alyta,67.8006,130.4114,-14.26,76,0,1.61,RU,1615006883
440,kadnikov,59.5022,40.338,3.34,94,50,4.47,RU,1615007347
441,kjellerup,56.2858,9.4353,37.4,87,20,20.71,DK,1615007347
442,hamilton,39.1834,-84.5333,37.4,52,1,6.91,US,1615007294
443,teguise,29.0605,-13.564,62.6,67,0,10.36,ES,1615007348
444,penzance,50.1186,-5.5371,39.0,75,75,10.36,GB,1615007348
445,koulikoro,14.0,-7.75,73.53,28,67,7.18,ML,1615007349
446,cortez,37.3489,-108.5859,33.8,69,1,3.44,US,1615007349
447,goderich,43.7501,-81.7165,30.2,69,100,23.02,CA,1615007172
448,ola,59.5833,151.2833,-2.43,75,7,9.84,RU,1615007349
449,tefe,-3.3542,-64.7114,74.17,91,88,1.74,BR,1615007350
450,bilibino,68.0546,166.4372,-14.67,86,100,3.09,RU,1615007350
451,eyl,7.9803,49.8164,77.49,64,93,16.64,SO,1615007350
452,ugoofaaru,5.6667,73.0,83.12,69,24,8.5,MV,1615007351
453,ponta delgada,37.7333,-25.6667,50.0,87,20,4.61,PT,1615007351
454,zapolyarnyy,69.4154,30.8136,15.8,86,90,11.5,RU,1615007351
455,pudozh,61.8099,36.5345,1.42,94,93,3.65,RU,1615007352
456,manzanillo,20.3433,-77.1167,70.02,84,15,6.96,CU,1615007352
457,bolivar,37.6145,-93.4105,39.0,61,43,5.64,US,1615007352
458,puerto carreno,6.189,-67.4859,78.21,80,96,3.27,CO,1615007353
459,verkhoyansk,67.5447,133.385,-15.07,82,78,2.46,RU,1615007353
460,zhezkazgan,47.8043,67.7144,21.7,95,9,5.79,KZ,1615006877
461,poronaysk,49.2167,143.1167,3.88,82,78,13.91,RU,1615007353
462,buchanan,5.8808,-10.0467,77.0,94,20,4.27,LR,1615007354
463,fier,40.7239,19.5561,51.33,70,95,2.75,AL,1615007354
464,jacqueville,5.2052,-4.4146,75.2,94,40,4.61,CI,1615007354
465,logansport,40.7545,-86.3567,32.0,69,1,6.35,US,1615007354
466,tarakan,3.3,117.6333,82.94,68,31,7.49,ID,1615007355
467,ust-omchug,61.15,149.6333,-13.85,80,100,4.59,RU,1615007355
468,petatlan,17.5167,-101.2667,69.26,80,0,3.62,MX,1615007356
469,xining,36.6167,101.7667,38.23,61,2,3.89,CN,1615007356
470,ponnani,10.767,75.9252,87.8,58,20,2.3,IN,1615007357
471,mount gambier,-37.8333,140.7667,73.4,38,59,13.8,AU,1615006781
472,carlisle,40.2015,-77.1889,32.0,40,0,3.0,US,1615007160
473,kluczbork,50.9728,18.2182,28.0,76,0,7.16,PL,1615007296
474,krasnoborsk,61.5598,45.934,-1.16,92,87,4.81,RU,1615007358
475,otradnoye,59.7775,30.8181,18.0,85,0,4.47,RU,1615007358
476,yarmouth,41.7057,-70.2286,30.0,40,20,8.05,US,1615007068
477,pokhara,28.2333,83.9833,76.86,18,0,6.96,NP,1615007358
478,boksitogorsk,59.474,33.8485,11.39,97,97,4.29,RU,1615007359
479,faya,18.3851,42.4509,59.0,30,0,9.93,SA,1615006894
480,sunland park,31.7965,-106.58,55.4,43,1,12.66,US,1615007290
481,menongue,-14.6585,17.691,57.9,89,3,1.52,AO,1615007359
482,emba,48.8264,58.1442,28.35,98,97,14.2,KZ,1615007360
483,labytnangi,66.6572,66.4183,-1.66,87,81,4.76,RU,1615007360
484,osakarovka,50.565,72.5692,20.43,96,99,23.09,KZ,1615007360
485,kashi,39.4547,75.9797,44.6,45,0,13.42,CN,1615007183
486,kurilsk,45.2333,147.8833,12.36,93,99,23.78,RU,1615007361
487,manaus,-3.1019,-60.025,77.0,94,40,2.3,BR,1615007195
488,pietarsaari,63.65,22.6833,27.0,86,20,17.27,FI,1615007361
489,kodinsk,58.6881,99.1844,24.26,95,100,9.89,RU,1615006905
490,saint-georges,12.0564,-61.7485,78.8,78,20,20.71,GD,1615007362
491,touros,-5.1989,-35.4608,75.2,94,40,3.44,BR,1615007362
492,balabac,7.9868,117.0645,84.15,71,17,14.32,PH,1615007363
493,batemans bay,-35.7167,150.1833,70.0,62,0,4.0,AU,1615006921
494,xalpatlahuac,17.4667,-98.6167,58.75,69,46,5.84,MX,1615007363
495,north bend,43.4065,-124.2243,43.0,93,90,11.5,US,1615007364
496,buala,-8.145,159.5921,80.37,82,100,5.57,SB,1615007364
497,rio gallegos,-51.6226,-69.2181,68.36,46,100,23.98,AR,1615006878
498,chapayevka,47.4711,36.3451,37.94,95,100,2.66,UA,1615007364
499,podosinovets,60.2776,47.0659,0.32,92,91,5.03,RU,1615007364
500,chutove,49.7104,35.1603,30.29,92,100,9.33,UA,1615007365
501,la ronge,55.1001,-105.2842,32.0,69,100,12.66,CA,1615006767
502,kloulklubed,7.0419,134.2556,86.0,66,75,8.05,PW,1615007366
503,privas,44.5833,4.5,39.99,66,0,1.99,FR,1615007366
504,samarinda,-0.5,117.15,87.62,67,31,6.93,ID,1615007367
505,yermakovskoye,53.2831,92.4003,31.12,95,100,4.88,RU,1615007367
506,mudgee,-32.5943,149.5871,75.99,38,40,8.05,AU,1615007367
507,marshalltown,42.0494,-92.908,32.0,86,90,5.75,US,1615007367
508,margate,51.3813,1.3862,39.99,56,22,1.99,GB,1615006882
509,anshun,26.25,105.9333,54.54,69,83,12.82,CN,1615007368
510,saint-denis,48.9167,2.3333,35.01,74,0,10.36,FR,1615007368
511,amapa,1.0,-52.0,71.38,98,100,2.24,BR,1615007369
512,bowen,-20.0167,148.2333,87.8,62,40,12.66,AU,1615007369
513,straumen,63.8709,11.2999,41.0,81,90,24.16,NO,1615007369
514,nandurbar,21.3667,74.25,90.66,14,0,3.31,IN,1615007369
515,tsabong,-26.0217,22.401,74.14,35,5,1.9,BW,1615007370
516,angoche,-16.2325,39.9086,78.26,91,24,8.41,MZ,1615007370
517,sioux lookout,50.1001,-91.917,17.6,79,1,2.37,CA,1615006775
518,stephenville,32.2207,-98.2023,53.6,71,90,9.22,US,1615007371
519,tual,-5.6667,132.75,83.55,74,91,10.74,ID,1615006902
520,poum,-20.2333,164.0167,82.13,77,100,42.19,NC,1615006786
521,skjervoy,70.0311,20.9714,28.27,98,100,10.47,NO,1615006812
522,lithakia,37.7167,20.8333,50.0,87,75,3.44,GR,1615007372
523,jinxiang,27.4327,120.6062,55.89,91,100,13.62,CN,1615007372
524,acapulco,16.8634,-99.8901,73.72,78,9,4.68,MX,1615006767
525,sweetwater,25.7634,-80.3731,69.8,60,75,5.75,US,1615007372
526,brae,60.3964,-1.353,42.8,81,90,25.32,GB,1615007318
527,vanimo,-2.6741,141.3028,83.75,72,100,11.16,PG,1615006881
528,tatawin,32.9297,10.4518,51.8,87,7,6.51,TN,1615007373
529,diu,20.7141,70.9822,87.62,28,0,7.72,IN,1615007244
530,harsin,34.2721,47.5861,33.8,93,7,2.06,IR,1615007374
531,nicoya,10.1483,-85.452,75.2,60,0,5.75,CR,1615007374
532,melenki,55.3343,41.6295,7.84,95,0,3.89,RU,1615007374
533,tokur,53.1333,132.9,-7.56,86,79,4.76,RU,1615007375
534,trairi,-3.2778,-39.2689,78.4,80,82,6.96,BR,1615007375
535,valparaiso,-33.0393,-71.6273,60.01,81,0,4.14,CL,1615007375
536,khani,41.9563,42.9566,41.0,56,0,10.36,GE,1615007376
537,solginskiy,61.05,41.3428,-4.02,91,44,5.01,RU,1615007376
538,kitob,39.0843,66.8332,46.4,66,75,4.61,UZ,1615007376
539,rosario do sul,-30.2583,-54.9142,63.55,94,0,9.06,BR,1615007377
540,asau,46.4333,26.4,30.99,53,100,8.72,RO,1615007377
541,urucara,-2.5364,-57.76,74.3,97,94,1.39,BR,1615007378
542,honningsvag,70.9821,25.9704,30.52,95,100,8.01,NO,1615007378
543,hami,42.8,93.45,45.86,48,99,1.28,CN,1615006845
544,tromso,69.6496,18.957,26.6,93,90,6.91,NO,1615007378
545,ketchikan,55.3422,-131.6461,39.2,87,90,6.91,US,1615007378
546,curitibanos,-27.2828,-50.5844,58.91,100,91,1.79,BR,1615007378
547,twentynine palms,34.1356,-116.0542,60.01,19,1,8.05,US,1615007217
548,mao,39.8885,4.2658,46.4,93,0,9.22,ES,1615007379
549,bicester,51.9,-1.1536,30.0,94,0,5.55,GB,1615007379
550,caluquembe,-13.7833,14.6833,60.4,88,66,0.27,AO,1615007380
551,deputatskiy,69.3,139.9,-20.33,85,100,10.89,RU,1615006800
552,fare,-16.7,-151.0167,83.68,71,100,9.64,PF,1615007380
553,beira,-19.8436,34.8389,78.8,89,20,3.44,MZ,1615007380
554,gizo,-8.103,156.8419,82.15,73,100,6.06,SB,1615006895
555,kunashak,55.7032,61.5498,17.6,67,0,15.66,RU,1615007381
556,aden,12.7794,45.0367,77.41,69,0,9.73,YE,1615007223
557,mildura,-34.2,142.15,80.6,16,0,6.91,AU,1615007381
558,umm kaddadah,13.6017,26.6876,63.72,24,0,17.6,SD,1615006911
559,xingyi,24.1877,102.817,68.81,25,21,15.79,CN,1615007382
560,wagar,16.1525,36.2032,64.47,78,0,8.32,SD,1615007382
561,grindavik,63.8424,-22.4338,39.2,93,90,8.05,IS,1615006864
562,payakumbuh,-0.2202,100.6308,83.82,61,83,3.91,ID,1615007383
563,khorixas,-20.3667,14.9667,75.81,38,46,4.65,NA,1615007383
564,sivas,39.7916,37.0019,24.8,74,0,8.05,TR,1615007384
565,kendari,-3.945,122.4989,82.13,77,96,6.33,ID,1615007384
566,mandalgovi,45.7625,106.2708,32.76,68,27,12.91,MN,1615007384
567,awbari,26.5921,12.7805,54.52,37,0,5.23,LY,1615006797
568,lanzhou,36.0564,103.7922,42.8,28,0,6.71,CN,1615007384
569,castanos,26.7833,-101.4167,62.71,34,0,8.23,MX,1615007385
570,kudahuvadhoo,2.6708,72.8944,82.71,76,47,9.93,MV,1615006873
571,yuanping,38.7153,112.7575,39.36,67,84,6.04,CN,1615007385
572,karratha,-20.7377,116.8463,92.05,37,0,12.01,AU,1615006787
573,beroroha,-21.6667,45.1667,77.58,78,38,2.98,MG,1615007237
574,pangody,65.85,74.4859,6.51,95,96,2.62,RU,1615007386
575,alofi,-19.0595,-169.9187,84.2,74,88,4.61,NU,1615006874
576,parabel,58.6978,81.4825,27.07,98,100,12.93,RU,1615007387
577,mangrol,21.1167,70.1167,84.15,41,0,8.46,IN,1615007387
